[
  {
    "name": "Пинар-дель-Рио",
    "iata": "HAV",
    "location": {
      "longitude": "-83.6880257",
      "latitude": "22.4133651"
    }
  },
  {
    "name": "Матансас",
    "iata": "VRA",
    "location": {
      "longitude": "-81.5322149",
      "latitude": "23.0303395"
    }
  },
  {
    "name": "Сьего-де-Авила",
    "iata": "CCC",
    "location": {
      "longitude": "-78.5660852",
      "latitude": "21.9329515"
    }
  },
  {
    "name": "Санкти-Спиритус",
    "iata": "SNU",
    "location": {
      "longitude": "-79.4703885",
      "latitude": "21.9938214"
    }
  },
  {
    "name": "Карденас",
    "iata": "VRA",
    "location": {
      "longitude": "-81.2133262",
      "latitude": "23.0365513"
    }
  },
  {
    "name": "Моа",
    "iata": "MOA",
    "location": {
      "longitude": "-74.9501034",
      "latitude": "20.6574573"
    }
  },
  {
    "name": "Нуэва-Херона",
    "iata": "HAV",
    "location": {
      "longitude": "-82.8101975",
      "latitude": "21.8788609"
    }
  },
  {
    "name": "Колон",
    "iata": "HAV",
    "location": {
      "longitude": "-80.9041817",
      "latitude": "22.7238445"
    }
  },
  {
    "name": "Флорида",
    "iata": "CCC",
    "location": {
      "longitude": "-78.219132",
      "latitude": "21.5149423"
    }
  },
  {
    "name": "Артемиса",
    "iata": "HAV",
    "location": {
      "longitude": "-82.9931607",
      "latitude": "22.7522903"
    }
  },
  {
    "name": "Морон",
    "iata": "CCC",
    "location": {
      "longitude": "-78.6228504",
      "latitude": "22.0897108"
    }
  },
  {
    "name": "Пуэрто-Падре",
    "iata": "HOG",
    "location": {
      "longitude": "-76.606611",
      "latitude": "21.1878548"
    }
  },
  {
    "name": "Гуинес",
    "iata": "HAV",
    "location": {
      "longitude": "-82.0243657",
      "latitude": "22.8429803"
    }
  },
  {
    "name": "Тринидад",
    "iata": "HAV",
    "location": {
      "longitude": "-79.9808143",
      "latitude": "21.7960343"
    }
  },
  {
    "name": "Сан-Луис",
    "iata": "SCU",
    "location": {
      "longitude": "-75.8475853",
      "latitude": "20.1871897"
    }
  },
  {
    "name": "Сан-Кристобаль",
    "iata": "HAV",
    "location": {
      "longitude": "-83.0415078",
      "latitude": "22.7129122"
    }
  },
  {
    "name": "Хагуэй-Гранде",
    "iata": "HAV",
    "location": {
      "longitude": "-81.1278814",
      "latitude": "22.5267186"
    }
  },
  {
    "name": "Сан-Хосе-де-лас-Лахас",
    "iata": "HAV",
    "location": {
      "longitude": "-82.1523251",
      "latitude": "22.9647344"
    }
  },
  {
    "name": "Пласетас",
    "iata": "SNU",
    "location": {
      "longitude": "-79.6558242",
      "latitude": "22.3179093"
    }
  },
  {
    "name": "Сантьяго",
    "iata": "SCU",
    "location": {
      "longitude": "-75.8301537",
      "latitude": "20.01693"
    }
  },
  {
    "name": "Гавана",
    "iata": "HAV",
    "location": {
      "longitude": "-82.372385",
      "latitude": "23.1066"
    }
  },
  {
    "name": "Варадеро",
    "iata": "VRA",
    "location": {
      "longitude": "-81.1885293",
      "latitude": "23.179858"
    }
  },
  {
    "name": "Голгуин",
    "iata": "HOG",
    "location": {
      "longitude": "-76.2594981",
      "latitude": "20.8795129"
    }
  },
  {
    "name": "Кайо Коко",
    "iata": "CCC",
    "location": {
      "longitude": "-78.3041",
      "latitude": "22.3053"
    }
  },
  {
    "name": "Кайо Ларго Дель Сур",
    "iata": "CYO",
    "location": {
      "longitude": "-18.3100",
      "latitude": "21.3622"
    }
  },
  {
    "name": "Камагуэй",
    "iata": "CMW",
    "location": {
      "longitude": "-77.7452081",
      "latitude": "21.2167247"
    }
  },
  {
    "name": "Нуэва-Герона",
    "iata": "GER",
    "location": {
      "longitude": "-82.8404",
      "latitude": "21.53005"
    }
  },
  {
    "name": "Мансанильо",
    "iata": "MZO",
    "location": {
      "longitude": "-77.1197521",
      "latitude": "20.3332172"
    }
  },
  {
    "name": "Баракоа",
    "iata": "BCA",
    "location": {
      "longitude": "-74.2944",
      "latitude": "20.2039"
    }
  },
  {
    "name": "Гуантанамо",
    "iata": "GAO",
    "location": {
      "longitude": "-74.8741045",
      "latitude": "20.1455917"
    }
  }
]
